[
  {
    "cluster_eng": "Hong Kong East Cluster",
    "institution_eng": "Anne Black General Out-patient Clinic",
    "address_eng": "1/F, 140 Tsat Tse Mui Road, North Point",
    "cluster_tc": "港島東醫院聯網",
    "institution_tc": "柏立基夫人普通科門診診所",
    "address_tc": "北角七姊妹道140號一樓",
    "cluster_sc": "港岛东医院联网",
    "institution_sc": "柏立基夫人普通科门诊诊所",
    "address_sc": "北角七姊妹道140号一楼",
    "latitude": 22.291367,
    "longitude": 114.205
  },
  {
    "cluster_eng": "Hong Kong East Cluster",
    "institution_eng": "Chai Wan General Out-patient Clinic",
    "address_eng": "G/F, 1 Hong Man Street, Chai Wan",
    "cluster_tc": "港島東醫院聯網",
    "institution_tc": "柴灣普通科門診診所",
    "address_tc": "柴灣康民街1號地下",
    "cluster_sc": "港岛东医院联网",
    "institution_sc": "柴湾普通科门诊诊所",
    "address_sc": "柴湾康民街1号地下",
    "latitude": 22.265297,
    "longitude": 114.23426
  },
  {
    "cluster_eng": "Hong Kong East Cluster",
    "institution_eng": "North Lamma General Out-patient Clinic",
    "address_eng": "G/F, 100 Main Street, Yung Shue Wan, Lamma Island",
    "cluster_tc": "港島東醫院聯網",
    "institution_tc": "北南丫普通科門診診所",
    "address_tc": "南丫島榕樹灣大街100號地下",
    "cluster_sc": "港岛东医院联网",
    "institution_sc": "北南丫普通科门诊诊所",
    "address_sc": "南丫岛榕树湾大街100号地下",
    "latitude": 22.224294,
    "longitude": 114.11109
  },
  {
    "cluster_eng": "Hong Kong East Cluster",
    "institution_eng": "Peng Chau General Out-patient Clinic",
    "address_eng": "G/F, 1A Shing Ka Road, Peng Chau",
    "cluster_tc": "港島東醫院聯網",
    "institution_tc": "坪洲普通科門診診所",
    "address_tc": "坪洲聖家路1號A地下",
    "cluster_sc": "港岛东医院联网",
    "institution_sc": "坪洲普通科门诊诊所",
    "address_sc": "坪洲圣家路1号A地下",
    "latitude": 22.28357,
    "longitude": 114.03922
  },
  {
    "cluster_eng": "Hong Kong East Cluster",
    "institution_eng": "Sai Wan Ho General Out-patient Clinic",
    "address_eng": "1/F, 28 Tai Hong Street, Sai Wan Ho",
    "cluster_tc": "港島東醫院聯網",
    "institution_tc": "西灣河普通科門診診所",
    "address_tc": "西灣河太康街28號一樓",
    "cluster_sc": "港岛东医院联网",
    "institution_sc": "西湾河普通科门诊诊所",
    "address_sc": "西湾河太康街28号一楼",
    "latitude": 22.284589,
    "longitude": 114.22382
  },
  {
    "cluster_eng": "Hong Kong East Cluster",
    "institution_eng": "Shau Kei Wan Jockey Club General Out-patient Clinic",
    "address_eng": "1/F, 8 Chai Wan Road, Shau Kei Wan",
    "cluster_tc": "港島東醫院聯網",
    "institution_tc": "筲箕灣賽馬會普通科門診診所",
    "address_tc": "筲箕灣柴灣道8號一樓",
    "cluster_sc": "港岛东医院联网",
    "institution_sc": "筲箕湾赛马会普通科门诊诊所",
    "address_sc": "筲箕湾柴湾道8号一楼",
    "latitude": 22.276487,
    "longitude": 114.22834
  },
  {
    "cluster_eng": "Hong Kong East Cluster",
    "institution_eng": "Sok Kwu Wan General Out-patient Clinic",
    "address_eng": "G/F, 1 Second Street, Sok Kwu Wan, Lamma Island",
    "cluster_tc": "港島東醫院聯網",
    "institution_tc": "索罟灣普通科門診診所",
    "address_tc": "南丫島索罟灣第二街1號地下",
    "cluster_sc": "港岛东医院联网",
    "institution_sc": "索罟湾普通科门诊诊所",
    "address_sc": "南丫岛索罟湾第二街1号地下",
    "latitude": 22.205599,
    "longitude": 114.13158
  },
  {
    "cluster_eng": "Hong Kong East Cluster",
    "institution_eng": "St. John Hospital General Out-patient Department",
    "address_eng": "1/F, Out-patient Department Block, St. John Hospital, Cheung Chau Hospital Road, Tung Wan, Cheung Chau",
    "cluster_tc": "港島東醫院聯網",
    "institution_tc": "長洲醫院普通科門診部",
    "address_tc": "長洲東灣長洲醫院路長洲醫院門診大樓1樓",
    "cluster_sc": "港岛东医院联网",
    "institution_sc": "长洲医院普通科门诊部",
    "address_sc": "长洲东湾长洲医院路长洲医院门诊大楼1楼",
    "latitude": 22.20822,
    "longitude": 114.03111
  },
  {
    "cluster_eng": "Hong Kong East Cluster",
    "institution_eng": "Stanley General Out-patient Clinic",
    "address_eng": "G/F, 14 Wong Ma Kok Road, Stanley",
    "cluster_tc": "港島東醫院聯網",
    "institution_tc": "赤柱普通科門診診所",
    "address_tc": "赤柱黃麻角道14號地下",
    "cluster_sc": "港岛东医院联网",
    "institution_sc": "赤柱普通科门诊诊所",
    "address_sc": "赤柱黄麻角道14号地下",
    "latitude": 22.217729,
    "longitude": 114.21339
  },
  {
    "cluster_eng": "Hong Kong East Cluster",
    "institution_eng": "Tung Wah Eastern Hospital General Out-patient Department",
    "address_eng": "G/F, Main Block, Tung Wah Eastern Hospital, 19 Eastern Hospital Road, Causeway Bay",
    "cluster_tc": "港島東醫院聯網",
    "institution_tc": "東華東院普通科門診部",
    "address_tc": "銅鑼灣東院道19號東華東院主座大樓地下",
    "cluster_sc": "港岛东医院联网",
    "institution_sc": "东华东院普通科门诊部",
    "address_sc": "铜锣湾东院道19号东华东院主座大楼地下",
    "latitude": 22.274725,
    "longitude": 114.19026
  },
  {
    "cluster_eng": "Hong Kong East Cluster",
    "institution_eng": "Violet Peel General Out-patient Clinic",
    "address_eng": "LG, Tang Shiu Kin Hospital, Community Ambulatory Care Centre, 282 Queen’s Road East, Wanchai",
    "cluster_tc": "港島東醫院聯網",
    "institution_tc": "貝夫人普通科門診診所",
    "address_tc": "灣仔皇后大道東282號鄧肇堅醫院社區日間醫療中心地庫高層",
    "cluster_sc": "港岛东医院联网",
    "institution_sc": "贝夫人普通科门诊诊所",
    "address_sc": "湾仔皇后大道东282号邓肇坚医院社区日间医疗中心地库高层",
    "latitude": 22.275313,
    "longitude": 114.17774
  },
  {
    "cluster_eng": "Hong Kong East Cluster",
    "institution_eng": "Wan Tsui General Out-patient Clinic",
    "address_eng": "G/F, Block 12, Wan Tsui Estate, Chai Wan",
    "cluster_tc": "港島東醫院聯網",
    "institution_tc": "環翠普通科門診診所",
    "address_tc": "柴灣環翠邨第12座地下",
    "cluster_sc": "港岛东医院联网",
    "institution_sc": "环翠普通科门诊诊所",
    "address_sc": "柴湾环翠邨第12座地下",
    "latitude": 22.262901,
    "longitude": 114.23949
  },
  {
    "cluster_eng": "Hong Kong West Cluster",
    "institution_eng": "Aberdeen Jockey Club General Out-patient Clinic",
    "address_eng": "10 Aberdeen Reservoir Road, Aberdeen",
    "cluster_tc": "港島西醫院聯網",
    "institution_tc": "香港仔賽馬會普通科門診診所",
    "address_tc": "香港仔水塘道10號",
    "cluster_sc": "港岛西医院联网",
    "institution_sc": "香港仔赛马会普通科门诊诊所",
    "address_sc": "香港仔水塘道10号",
    "latitude": 22.249953,
    "longitude": 114.15634
  },
  {
    "cluster_eng": "Hong Kong West Cluster",
    "institution_eng": "Ap Lei Chau General Out-patient Clinic",
    "address_eng": "161 Ap Lei Chau Main Street, Ap Lei Chau",
    "cluster_tc": "港島西醫院聯網",
    "institution_tc": "鴨脷洲普通科門診診所",
    "address_tc": "鴨脷洲大街161號",
    "cluster_sc": "港岛西医院联网",
    "institution_sc": "鸭脷洲普通科门诊诊所",
    "address_sc": "鸭脷洲大街161号",
    "latitude": 22.243243,
    "longitude": 114.15361
  },
  {
    "cluster_eng": "Hong Kong West Cluster",
    "institution_eng": "Central District Health Centre General Out-patient Clinic",
    "address_eng": "1 Kau U Fong, Central",
    "cluster_tc": "港島西醫院聯網",
    "institution_tc": "中區健康院普通科門診診所",
    "address_tc": "中環九如坊1號",
    "cluster_sc": "港岛西医院联网",
    "institution_sc": "中区健康院普通科门诊诊所",
    "address_sc": "中环九如坊1号",
    "latitude": 22.284513,
    "longitude": 114.15265
  },
  {
    "cluster_eng": "Hong Kong West Cluster",
    "institution_eng": "Kennedy Town Jockey Club General Out-patient Clinic",
    "address_eng": "45 Victoria Road, Kennedy Town",
    "cluster_tc": "港島西醫院聯網",
    "institution_tc": "堅尼地城賽馬會普通科門診診所",
    "address_tc": "堅尼地城域多利道45號",
    "cluster_sc": "港岛西医院联网",
    "institution_sc": "坚尼地城赛马会普通科门诊诊所",
    "address_sc": "坚尼地城域多利道45号",
    "latitude": 22.281851,
    "longitude": 114.12396
  },
  {
    "cluster_eng": "Hong Kong West Cluster",
    "institution_eng": "Sai Ying Pun Jockey Club General Out-patient Clinic",
    "address_eng": "134 Queen's Road West, Sai Ying Pun",
    "cluster_tc": "港島西醫院聯網",
    "institution_tc": "西營盤賽馬會普通科門診診所",
    "address_tc": "西營盤皇后大道西134號",
    "cluster_sc": "港岛西医院联网",
    "institution_sc": "西营盘赛马会普通科门诊诊所",
    "address_sc": "西营盘皇后大道西134号",
    "latitude": 22.286435,
    "longitude": 114.14504
  },
  {
    "cluster_eng": "Hong Kong West Cluster",
    "institution_eng": "Tung Wah Hospital GOPC",
    "address_eng": "G/F, Hawkins Wing, Tung Wah Hospital, 12 Po Yan Street, Sheung Wan",
    "cluster_tc": "港島西醫院聯網",
    "institution_tc": "東華醫院普通科門診診所",
    "address_tc": "上環普仁街12號東華醫院鶴堅士樓地下",
    "cluster_sc": "港岛西医院联网",
    "institution_sc": "东华医院普通科门诊诊所",
    "address_sc": "上环普仁街12号东华医院鹤坚士楼地下",
    "latitude": 22.28546,
    "longitude": 114.14678
  },
  {
    "cluster_eng": "Kowloon Central Cluster",
    "institution_eng": "Central Kowloon Health Centre",
    "address_eng": "147A Argyle Street, Mongkok",
    "cluster_tc": "九龍中醫院聯網",
    "institution_tc": "中九龍診所",
    "address_tc": "旺角亞皆老街147號A",
    "cluster_sc": "九龙中医院联网",
    "institution_sc": "中九龙诊所",
    "address_sc": "旺角亚皆老街147号A",
    "latitude": 22.322407,
    "longitude": 114.17904
  },
  {
    "cluster_eng": "Kowloon Central Cluster",
    "institution_eng": "East Kowloon General Out-patient Clinic",
    "address_eng": "160 Hammer Hill Road, Diamond Hill",
    "cluster_tc": "九龍中醫院聯網",
    "institution_tc": "東九龍普通科門診診所",
    "address_tc": "鑽石山斧山道160號",
    "cluster_sc": "九龙中医院联网",
    "institution_sc": "东九龙普通科门诊诊所",
    "address_sc": "钻石山斧山道160号",
    "latitude": 22.339517,
    "longitude": 114.20795
  },
  {
    "cluster_eng": "Kowloon Central Cluster",
    "institution_eng": "Hong Kong Buddhist Hospital General Out-patient Clinic",
    "address_eng": "LG, Block A, Hong Kong Buddhist Hospital, 10 Heng Lam Street, Lok Fu",
    "cluster_tc": "九龍中醫院聯網",
    "institution_tc": "香港佛教醫院普通科門診診所",
    "address_tc": "樂富杏林街10號香港佛教醫院A座低層",
    "cluster_sc": "九龙中医院联网",
    "institution_sc": "香港佛教医院普通科门诊诊所",
    "address_sc": "乐富杏林街10号香港佛教医院A座低层",
    "latitude": 22.33568,
    "longitude": 114.18874
  },
  {
    "cluster_eng": "Kowloon Central Cluster",
    "institution_eng": "Hung Hom Clinic",
    "address_eng": "22 Station Lane, Hung Hom",
    "cluster_tc": "九龍中醫院聯網",
    "institution_tc": "紅磡診所",
    "address_tc": "紅磡差館里22號",
    "cluster_sc": "九龙中医院联网",
    "institution_sc": "红磡诊所",
    "address_sc": "红磡差馆里22号",
    "latitude": 22.308139,
    "longitude": 114.1856
  },
  {
    "cluster_eng": "Kowloon Central Cluster",
    "institution_eng": "Kwong Wah Hospital GOPD",
    "address_eng": "1/F, TWGHs Tsui Tsin Tong Outpatient Building, Kwong Wah Hospital, 25 Waterloo Road, Yau Ma Tei",
    "cluster_tc": "九龍中醫院聯網",
    "institution_tc": "廣華醫院全科門診部",
    "address_tc": "油麻地窩打老道25號廣華醫院東華三院徐展堂門診大樓1樓",
    "cluster_sc": "九龙中医院联网",
    "institution_sc": "广华医院全科门诊部",
    "address_sc": "油麻地窝打老道25号广华医院东华三院徐展堂门诊大楼1楼",
    "latitude": 22.31547,
    "longitude": 114.17168
  },
  {
    "cluster_eng": "Kowloon Central Cluster",
    "institution_eng": "Lee Kee Memorial Dispensary",
    "address_eng": "99 Carpenter Road, Kowloon City",
    "cluster_tc": "九龍中醫院聯網",
    "institution_tc": "李基紀念醫局",
    "address_tc": "九龍城賈炳達道99號",
    "cluster_sc": "九龙中医院联网",
    "institution_sc": "李基纪念医局",
    "address_sc": "九龙城贾炳达道99号",
    "latitude": 22.330372,
    "longitude": 114.18904
  },
  {
    "cluster_eng": "Kowloon Central Cluster",
    "institution_eng": "Li Po Chun General Out-patient Clinic",
    "address_eng": "22 Arran Street, Mongkok",
    "cluster_tc": "九龍中醫院聯網",
    "institution_tc": "李寶椿普通科門診診所",
    "address_tc": "旺角鴉蘭街22號",
    "cluster_sc": "九龙中医院联网",
    "institution_sc": "李宝椿普通科门诊诊所",
    "address_sc": "旺角鸦兰街22号",
    "latitude": 22.32275,
    "longitude": 114.16612
  },
  {
    "cluster_eng": "Kowloon Central Cluster",
    "institution_eng": "Our Lady of Maryknoll Hospital Family Medicine Clinic",
    "address_eng": "G/F, Out-patient Block, Our Lady of Maryknoll Hospital,118 Shatin Pass Road, Wong Tai Sin",
    "cluster_tc": "九龍中醫院聯網",
    "institution_tc": "聖母醫院家庭醫學診所",
    "address_tc": "黃大仙沙田坳道118號聖母醫院門診大樓地下",
    "cluster_sc": "九龙中医院联网",
    "institution_sc": "圣母医院家庭医学诊所",
    "address_sc": "黄大仙沙田坳道118号圣母医院门诊大楼地下",
    "latitude": 22.345588,
    "longitude": 114.19657
  },
  {
    "cluster_eng": "Kowloon Central Cluster",
    "institution_eng": "Robert Black General Out-patient Clinic",
    "address_eng": "600 Prince Edward Road East, San Po Kong",
    "cluster_tc": "九龍中醫院聯網",
    "institution_tc": "柏立基普通科門診診所",
    "address_tc": "新蒲崗太子道東600號",
    "cluster_sc": "九龙中医院联网",
    "institution_sc": "柏立基普通科门诊诊所",
    "address_sc": "新蒲岗太子道东600号",
    "latitude": 22.332493,
    "longitude": 114.19563
  },
  {
    "cluster_eng": "Kowloon Central Cluster",
    "institution_eng": "Shun Tak Fraternal Association Leung Kau Kui Clinic",
    "address_eng": "2/F, Tokwawan Market & Government Offices Building, 165 Ma Tau Wai Road, Kowloon City",
    "cluster_tc": "九龍中醫院聯網",
    "institution_tc": "順德聯誼會梁銶琚診所",
    "address_tc": "九龍城馬頭圍道165號土瓜灣市政大廈暨政府合署2樓",
    "cluster_sc": "九龙中医院联网",
    "institution_sc": "顺德联谊会梁銶琚诊所",
    "address_sc": "九龙城马头围道165号土瓜湾市政大厦暨政府合署2楼",
    "latitude": 22.317142,
    "longitude": 114.18799
  },
  {
    "cluster_eng": "Kowloon Central Cluster",
    "institution_eng": "Wang Tau Hom Jockey Club General Out-patient Clinic",
    "address_eng": "200 Junction Road, Wang Tau Hom",
    "cluster_tc": "九龍中醫院聯網",
    "institution_tc": "橫頭磡賽馬會普通科門診診所",
    "address_tc": "橫頭磡聯合道200號",
    "cluster_sc": "九龙中医院联网",
    "institution_sc": "横头磡赛马会普通科门诊诊所",
    "address_sc": "横头磡联合道200号",
    "latitude": 22.339114,
    "longitude": 114.18538
  },
  {
    "cluster_eng": "Kowloon Central Cluster",
    "institution_eng": "Wu York Yu General Out-patient Clinic",
    "address_eng": "55 Sheung Fung Street, Tsz Wan Shan",
    "cluster_tc": "九龍中醫院聯網",
    "institution_tc": "伍若瑜普通科門診診所",
    "address_tc": "慈雲山雙鳳街55號",
    "cluster_sc": "九龙中医院联网",
    "institution_sc": "伍若瑜普通科门诊诊所",
    "address_sc": "慈云山双凤街55号",
    "latitude": 22.346915,
    "longitude": 114.19749
  },
  {
    "cluster_eng": "Kowloon Central Cluster",
    "institution_eng": "Yau Ma Tei Jockey Club General Out-patient Clinic",
    "address_eng": "1/F, 145 Battery Street, Yau Ma Tei",
    "cluster_tc": "九龍中醫院聯網",
    "institution_tc": "油麻地賽馬會普通科門診診所",
    "address_tc": "油麻地炮台街145號一樓",
    "cluster_sc": "九龙中医院联网",
    "institution_sc": "油麻地赛马会普通科门诊诊所",
    "address_sc": "油麻地炮台街145号一楼",
    "latitude": 22.30962,
    "longitude": 114.16927
  },
  {
    "cluster_eng": "Kowloon East Cluster",
    "institution_eng": "Kowloon Bay Health Centre General Out-patient Clinic",
    "address_eng": "1/F, 9 Kai Yan Street, Kowloon Bay",
    "cluster_tc": "九龍東醫院聯網",
    "institution_tc": "九龍灣健康中心普通科門診診所",
    "address_tc": "九龍灣啟仁街9號一樓",
    "cluster_sc": "九龙东医院联网",
    "institution_sc": "九龙湾健康中心普通科门诊诊所",
    "address_sc": "九龙湾启仁街9号一楼",
    "latitude": 22.328627,
    "longitude": 114.2071
  },
  {
    "cluster_eng": "Kowloon East Cluster",
    "institution_eng": "Kwun Tong Community Health Centre",
    "address_eng": "UG, 60 Hip Wo Street, Kwun Tong",
    "cluster_tc": "九龍東醫院聯網",
    "institution_tc": "觀塘社區健康中心",
    "address_tc": "觀塘協和街60號地下高層",
    "cluster_sc": "九龙东医院联网",
    "institution_sc": "观塘社区健康中心",
    "address_sc": "观塘协和街60号地下高层",
    "latitude": 22.314913,
    "longitude": 114.22604
  },
  {
    "cluster_eng": "Kowloon East Cluster",
    "institution_eng": "Lam Tin Polyclinic General Out-patient Clinic",
    "address_eng": "99 Kai Tin Road, Lam Tin",
    "cluster_tc": "九龍東醫院聯網",
    "institution_tc": "藍田分科診所普通科門診診所",
    "address_tc": "藍田啟田道99號",
    "cluster_sc": "九龙东医院联网",
    "institution_sc": "蓝田分科诊所普通科门诊诊所",
    "address_sc": "蓝田启田道99号",
    "latitude": 22.310567,
    "longitude": 114.23333
  },
  {
    "cluster_eng": "Kowloon East Cluster",
    "institution_eng": "Mona Fong General Out-patient Clinic",
    "address_eng": "G/F, 23 Man Nin Street, Sai Kung",
    "cluster_tc": "九龍東醫院聯網",
    "institution_tc": "方逸華普通科門診診所",
    "address_tc": "西貢萬年街23號地下",
    "cluster_sc": "九龙东医院联网",
    "institution_sc": "方逸华普通科门诊诊所",
    "address_sc": "西贡万年街23号地下",
    "latitude": 22.381755,
    "longitude": 114.27225
  },
  {
    "cluster_eng": "Kowloon East Cluster",
    "institution_eng": "Ngau Tau Kok Jockey Club General Out-patient Clinic",
    "address_eng": "G/F, 60 Ting On Street, Ngau Tau Kok",
    "cluster_tc": "九龍東醫院聯網",
    "institution_tc": "牛頭角賽馬會普通科門診診所",
    "address_tc": "牛頭角定安街60號地下",
    "cluster_sc": "九龙东医院联网",
    "institution_sc": "牛头角赛马会普通科门诊诊所",
    "address_sc": "牛头角定安街60号地下",
    "latitude": 22.317065,
    "longitude": 114.21696
  },
  {
    "cluster_eng": "Kowloon East Cluster",
    "institution_eng": "Shun Lee General Out-patient Clinic",
    "address_eng": "G/F, Lee Foo House, Shun Lee Estate, Kwun Tong",
    "cluster_tc": "九龍東醫院聯網",
    "institution_tc": "順利普通科門診診所",
    "address_tc": "觀塘順利邨利富樓地下",
    "cluster_sc": "九龙东医院联网",
    "institution_sc": "顺利普通科门诊诊所",
    "address_sc": "观塘顺利邨利富楼地下",
    "latitude": 22.330012,
    "longitude": 114.22689
  },
  {
    "cluster_eng": "Kowloon East Cluster",
    "institution_eng": "Tseung Kwan O (Po Ning Road) General Out-patient Clinic",
    "address_eng": "G/F, 28 Po Ning Road, Tseung Kwan O",
    "cluster_tc": "九龍東醫院聯網",
    "institution_tc": "將軍澳(寶寧路)普通科門診診所",
    "address_tc": "將軍澳寶寧路28號地下",
    "cluster_sc": "九龙东医院联网",
    "institution_sc": "将军澳(宝宁路)普通科门诊诊所",
    "address_sc": "将军澳宝宁路28号地下",
    "latitude": 22.317785,
    "longitude": 114.26794
  },
  {
    "cluster_eng": "Kowloon East Cluster",
    "institution_eng": "Tseung Kwan O Jockey Club General Out-patient Clinic",
    "address_eng": "99 Po Lam Road North, G/F, Tseung Kwan O",
    "cluster_tc": "九龍東醫院聯網",
    "institution_tc": "將軍澳賽馬會普通科門診診所",
    "address_tc": "將軍澳寶琳北路99號地下",
    "cluster_sc": "九龙东医院联网",
    "institution_sc": "将军澳赛马会普通科门诊诊所",
    "address_sc": "将军澳宝琳北路99号地下",
    "latitude": 22.325159,
    "longitude": 114.25946
  },
  {
    "cluster_eng": "Kowloon West Cluster",
    "institution_eng": "Caritas Medical Centre Family Medicine Clinic",
    "address_eng": "G/F, Wai Ming Block, Caritas Medical Centre, 111 Wing Hong Street, Sham Shui Po",
    "cluster_tc": "九龍西醫院聯網",
    "institution_tc": "明愛醫院家庭醫學診所",
    "address_tc": "深水埗永康街111號明愛醫院懷明樓地下",
    "cluster_sc": "九龙西医院联网",
    "institution_sc": "明爱医院家庭医学诊所",
    "address_sc": "深水埗永康街111号明爱医院怀明楼地下",
    "latitude": 22.340629,
    "longitude": 114.15231
  },
  {
    "cluster_eng": "Kowloon West Cluster",
    "institution_eng": "Cheung Sha Wan Jockey Club General Out-patient Clinic",
    "address_eng": "2 Kwong Lee Road, Cheung Sha Wan",
    "cluster_tc": "九龍西醫院聯網",
    "institution_tc": "長沙灣賽馬會普通科門診診所",
    "address_tc": "長沙灣廣利道2號",
    "cluster_sc": "九龙西医院联网",
    "institution_sc": "长沙湾赛马会普通科门诊诊所",
    "address_sc": "长沙湾广利道2号",
    "latitude": 22.340467,
    "longitude": 114.15852
  },
  {
    "cluster_eng": "Kowloon West Cluster",
    "institution_eng": "Ha Kwai Chung General Out-patient Clinic",
    "address_eng": "77 Lai Cho Road, Kwai Chung",
    "cluster_tc": "九龍西醫院聯網",
    "institution_tc": "下葵涌普通科門診診所",
    "address_tc": "葵涌麗祖路77號",
    "cluster_sc": "九龙西医院联网",
    "institution_sc": "下葵涌普通科门诊诊所",
    "address_sc": "葵涌丽祖路77号",
    "latitude": 22.352426,
    "longitude": 114.12801
  },
  {
    "cluster_eng": "Kowloon West Cluster",
    "institution_eng": "Lady Trench General Out-patient Clinic",
    "address_eng": "213 Sha Tsui Road, Tsuen Wan",
    "cluster_tc": "九龍西醫院聯網",
    "institution_tc": "戴麟趾夫人普通科門診診所",
    "address_tc": "荃灣沙咀道213號",
    "cluster_sc": "九龙西医院联网",
    "institution_sc": "戴麟趾夫人普通科门诊诊所",
    "address_sc": "荃湾沙咀道213号",
    "latitude": 22.370556,
    "longitude": 114.11554
  },
  {
    "cluster_eng": "Kowloon West Cluster",
    "institution_eng": "Mrs Wu York Yu General Out-patient Clinic",
    "address_eng": "310 Wo Yi Hop Road, Lei Muk Shue, Kwai Chung",
    "cluster_tc": "九龍西醫院聯網",
    "institution_tc": "伍若瑜夫人普通科門診診所",
    "address_tc": "梨木樹和宜合道310號",
    "cluster_sc": "九龙西医院联网",
    "institution_sc": "伍若瑜夫人普通科门诊诊所",
    "address_sc": "梨木树和宜合道310号",
    "latitude": 22.376161,
    "longitude": 114.13674
  },
  {
    "cluster_eng": "Kowloon West Cluster",
    "institution_eng": "Mui Wo General Out-patient Clinic",
    "address_eng": "G/F, & 1/F, Mui Wo Government Offices, 2 Ngan Kwong Wan Road, Mui Wo, Lantau Island",
    "cluster_tc": "九龍西醫院聯網",
    "institution_tc": "梅窩普通科門診診所",
    "address_tc": "大嶼山梅窩銀礦灣路2號梅窩政府合署地下及一樓",
    "cluster_sc": "九龙西医院联网",
    "institution_sc": "梅窝普通科门诊诊所",
    "address_sc": "大屿山梅窝银矿湾路2号梅窝政府合署地下及一楼",
    "latitude": 22.266111,
    "longitude": 113.99797
  },
  {
    "cluster_eng": "Kowloon West Cluster",
    "institution_eng": "Nam Cheong Family Medicine Clinic",
    "address_eng": "G/F, Treasury Building, 3 Tonkin Street West, Cheung Sha Wan",
    "cluster_tc": "九龍西醫院聯網",
    "institution_tc": "南昌家庭醫學診所",
    "address_tc": "長沙灣東京街西3號庫務大樓地下",
    "cluster_sc": "九龙西医院联网",
    "institution_sc": "南昌家庭医学诊所",
    "address_sc": "长沙湾东京街西3号库务大楼地下",
    "latitude": 22.33036,
    "longitude": 114.15418
  },
  {
    "cluster_eng": "Kowloon West Cluster",
    "institution_eng": "Nam Shan General Out-patient Clinic",
    "address_eng": "G/F, Nam Yiu House, Nam Shan Estate, Sham Shui Po",
    "cluster_tc": "九龍西醫院聯網",
    "institution_tc": "南山普通科門診診所",
    "address_tc": "深水埗南山邨南堯樓地下",
    "cluster_sc": "九龙西医院联网",
    "institution_sc": "南山普通科门诊诊所",
    "address_sc": "深水埗南山邨南尧楼地下",
    "latitude": 22.334129,
    "longitude": 114.17068
  },
  {
    "cluster_eng": "Kowloon West Cluster",
    "institution_eng": "North Kwai Chung General Out-patient Clinic",
    "address_eng": "125 Tai Pak Tin Street, Kwai Chung",
    "cluster_tc": "九龍西醫院聯網",
    "institution_tc": "北葵涌普通科門診診所",
    "address_tc": "葵涌大白田街125號",
    "cluster_sc": "九龙西医院联网",
    "institution_sc": "北葵涌普通科门诊诊所",
    "address_sc": "葵涌大白田街125号",
    "latitude": 22.369859,
    "longitude": 114.14032
  },
  {
    "cluster_eng": "Kowloon West Cluster",
    "institution_eng": "North Lantau Community Health Centre",
    "address_eng": "3/F, North Lantau Hospital, No.8, Chung Yan Road, Tung Chung, Lantau Island",
    "cluster_tc": "九龍西醫院聯網",
    "institution_tc": "北大嶼山社區健康中心",
    "address_tc": "大嶼山東涌松仁路8號北大嶼山醫院3樓",
    "cluster_sc": "九龙西医院联网",
    "institution_sc": "北大屿山社区健康中心",
    "address_sc": "大屿山东涌松仁路8号北大屿山医院3楼",
    "latitude": 22.282571,
    "longitude": 113.93914
  },
  {
    "cluster_eng": "Kowloon West Cluster",
    "institution_eng": "Shek Kip Mei General Out-patient Clinic",
    "address_eng": "201B, 2/F, Mei Hei House, Shek Kip Mei Estate, Sham Shui Po",
    "cluster_tc": "九龍西醫院聯網",
    "institution_tc": "石硤尾普通科門診診所",
    "address_tc": "深水埗石硤尾邨美禧樓2樓201B",
    "cluster_sc": "九龙西医院联网",
    "institution_sc": "石硖尾普通科门诊诊所",
    "address_sc": "深水埗石硖尾邨美禧楼2楼201B",
    "latitude": 22.33184,
    "longitude": 114.16741
  },
  {
    "cluster_eng": "Kowloon West Cluster",
    "institution_eng": "South Kwai Chung Jockey Club General Out-patient Clinic",
    "address_eng": "310 Kwai Shing Circuit, Kwai Chung",
    "cluster_tc": "九龍西醫院聯網",
    "institution_tc": "南葵涌賽馬會普通科門診診所",
    "address_tc": "葵涌葵盛圍310號",
    "cluster_sc": "九龙西医院联网",
    "institution_sc": "南葵涌赛马会普通科门诊诊所",
    "address_sc": "葵涌葵盛围310号",
    "latitude": 22.360806,
    "longitude": 114.1254
  },
  {
    "cluster_eng": "Kowloon West Cluster",
    "institution_eng": "Tai O Jockey Club General Out-patient Clinic",
    "address_eng": "G/F, 103 Shek Tsai Po Street, Tai O, Lantau Island",
    "cluster_tc": "九龍西醫院聯網",
    "institution_tc": "大澳賽馬會普通科門診診所",
    "address_tc": "大嶼山大澳石仔埗街103號地下",
    "cluster_sc": "九龙西医院联网",
    "institution_sc": "大澳赛马会普通科门诊诊所",
    "address_sc": "大屿山大澳石仔埗街103号地下",
    "latitude": 22.255756,
    "longitude": 113.85801
  },
  {
    "cluster_eng": "Kowloon West Cluster",
    "institution_eng": "Tsing Yi Cheung Hong General Out-patient Clinic",
    "address_eng": "3/F, Tsing Yi Cheung Hong Estate Commercial Complex, Cheung Hong Estate, Tsing Yi",
    "cluster_tc": "九龍西醫院聯網",
    "institution_tc": "青衣長康普通科門診診所",
    "address_tc": "青衣長康邨長康商場3樓",
    "cluster_sc": "九龙西医院联网",
    "institution_sc": "青衣长康普通科门诊诊所",
    "address_sc": "青衣长康邨长康商场3楼",
    "latitude": 22.348915,
    "longitude": 114.10594
  },
  {
    "cluster_eng": "Kowloon West Cluster",
    "institution_eng": "Tsing Yi Town General Out-patient Clinic",
    "address_eng": "21 Tsing Luk Street, Tsing Yi",
    "cluster_tc": "九龍西醫院聯網",
    "institution_tc": "青衣市區普通科門診診所",
    "address_tc": "青衣青綠街21號",
    "cluster_sc": "九龙西医院联网",
    "institution_sc": "青衣市区普通科门诊诊所",
    "address_sc": "青衣青绿街21号",
    "latitude": 22.354459,
    "longitude": 114.10593
  },
  {
    "cluster_eng": "Kowloon West Cluster",
    "institution_eng": "West Kowloon General Out-patient Clinic",
    "address_eng": "G/F, Cheung Sha Wan Government Offices, 303 Cheung Sha Wan Road, Sham Shui Po",
    "cluster_tc": "九龍西醫院聯網",
    "institution_tc": "西九龍普通科門診診所",
    "address_tc": "深水埗長沙灣道303號長沙灣政府合署地下",
    "cluster_sc": "九龙西医院联网",
    "institution_sc": "西九龙普通科门诊诊所",
    "address_sc": "深水埗长沙湾道303号长沙湾政府合署地下",
    "latitude": 22.331859,
    "longitude": 114.16045
  },
  {
    "cluster_eng": "Kowloon West Cluster",
    "institution_eng": "Yan Chai Hospital General Practice Clinic",
    "address_eng": "3/F, Block C, Yan Chai Hospital, 7-11 Yan Chai Street, Tsuen Wan",
    "cluster_tc": "九龍西醫院聯網",
    "institution_tc": "仁濟醫院全科診所",
    "address_tc": "荃灣仁濟街7-11號仁濟醫院C座3樓",
    "cluster_sc": "九龙西医院联网",
    "institution_sc": "仁济医院全科诊所",
    "address_sc": "荃湾仁济街7-11号仁济医院C座3楼",
    "latitude": 22.369548,
    "longitude": 114.11956
  },
  {
    "cluster_eng": "New Territories East Cluster",
    "institution_eng": "Fanling Family Medicine Centre",
    "address_eng": "1/F, Fanling Health Centre, 2 Pik Fung Road, Fanling",
    "cluster_tc": "新界東醫院聯網",
    "institution_tc": "粉嶺家庭醫學中心",
    "address_tc": "粉嶺璧峰路2號粉嶺健康中心1樓",
    "cluster_sc": "新界东医院联网",
    "institution_sc": "粉岭家庭医学中心",
    "address_sc": "粉岭璧峰路2号粉岭健康中心1楼",
    "latitude": 22.49632,
    "longitude": 114.13905
  },
  {
    "cluster_eng": "New Territories East Cluster",
    "institution_eng": "Lek Yuen General Out-patient Clinic",
    "address_eng": "G/F, 9 Lek Yuen Street, Shatin",
    "cluster_tc": "新界東醫院聯網",
    "institution_tc": "瀝源普通科門診診所",
    "address_tc": "沙田瀝源街9號地下",
    "cluster_sc": "新界东医院联网",
    "institution_sc": "沥源普通科门诊诊所",
    "address_sc": "沙田沥源街9号地下",
    "latitude": 22.383778,
    "longitude": 114.19182
  },
  {
    "cluster_eng": "New Territories East Cluster",
    "institution_eng": "Ma On Shan Family Medicine Centre",
    "address_eng": "G/F, 609 Sai Sha Road, Ma On Shan",
    "cluster_tc": "新界東醫院聯網",
    "institution_tc": "馬鞍山家庭醫學中心",
    "address_tc": "馬鞍山西沙路609號地下",
    "cluster_sc": "新界东医院联网",
    "institution_sc": "马鞍山家庭医学中心",
    "address_sc": "马鞍山西沙路609号地下",
    "latitude": 22.425074,
    "longitude": 114.23494
  },
  {
    "cluster_eng": "New Territories East Cluster",
    "institution_eng": "North District Community Health Centre",
    "address_eng": "3/F, North District Community Health Centre Building, No.3 Wai Wo Street, Sheung Shui",
    "cluster_tc": "新界東醫院聯網",
    "institution_tc": "北區社區健康中心",
    "address_tc": "上水衛和街3號北區社區健康中心大樓3樓",
    "cluster_sc": "新界东医院联网",
    "institution_sc": "北区社区健康中心",
    "address_sc": "上水卫和街3号北区社区健康中心大楼3楼",
    "latitude": 22.49837719,
    "longitude": 114.12786728
  },
  {
    "cluster_eng": "New Territories East Cluster",
    "institution_eng": "Sha Tau Kok General Out-patient Clinic",
    "address_eng": "G/F, 58 Sha Tau Kok Road (Shek Chung Au), Sha Tau Kok",
    "cluster_tc": "新界東醫院聯網",
    "institution_tc": "沙頭角普通科門診診所",
    "address_tc": "沙頭角公路（石涌凹段）58號地下",
    "cluster_sc": "新界东医院联网",
    "institution_sc": "沙头角普通科门诊诊所",
    "address_sc": "沙头角公路（石涌凹段）58号地下",
    "latitude": 22.536011,
    "longitude": 114.21016
  },
  {
    "cluster_eng": "New Territories East Cluster",
    "institution_eng": "Shatin (Tai Wai) General Out-patient Clinic",
    "address_eng": "G/F, 2 Man Lai Road, Tai Wai",
    "cluster_tc": "新界東醫院聯網",
    "institution_tc": "沙田（大圍）普通科門診診所",
    "address_tc": "大圍文禮路2號地下",
    "cluster_sc": "新界东医院联网",
    "institution_sc": "沙田（大围）普通科门诊诊所",
    "address_sc": "大围文礼路2号地下",
    "latitude": 22.377521,
    "longitude": 114.18411
  },
  {
    "cluster_eng": "New Territories East Cluster",
    "institution_eng": "Ta Kwu Ling General Out-patient Clinic",
    "address_eng": "G/F, Ta Kwu Ling Rural Centre Government Building, 136 Ping Che Road, Ta Kwu Ling",
    "cluster_tc": "新界東醫院聯網",
    "institution_tc": "打鼓嶺普通科門診診所",
    "address_tc": "打鼓嶺坪輋路136號打鼓嶺鄉村中心政府大樓地下",
    "cluster_sc": "新界东医院联网",
    "institution_sc": "打鼓岭普通科门诊诊所",
    "address_sc": "打鼓岭坪輋路136号打鼓岭乡村中心政府大楼地下",
    "latitude": 22.5245,
    "longitude": 114.16064
  },
  {
    "cluster_eng": "New Territories East Cluster",
    "institution_eng": "Tai Po Jockey Club General Out-patient Clinic",
    "address_eng": "G/F, 37 Ting Kok Road, Tai Po",
    "cluster_tc": "新界東醫院聯網",
    "institution_tc": "大埔賽馬會普通科門診診所",
    "address_tc": "大埔汀角路37號地下",
    "cluster_sc": "新界东医院联网",
    "institution_sc": "大埔赛马会普通科门诊诊所",
    "address_sc": "大埔汀角路37号地下",
    "latitude": 22.454018,
    "longitude": 114.16577
  },
  {
    "cluster_eng": "New Territories East Cluster",
    "institution_eng": "Wong Siu Ching Family Medicine Centre",
    "address_eng": "G/F, 1 Po Wu Lane, Tai Po",
    "cluster_tc": "新界東醫院聯網",
    "institution_tc": "王少清家庭醫學中心",
    "address_tc": "大埔寶湖里1號地下",
    "cluster_sc": "新界东医院联网",
    "institution_sc": "王少清家庭医学中心",
    "address_sc": "大埔宝湖里1号地下",
    "latitude": 22.450162,
    "longitude": 114.16808
  },
  {
    "cluster_eng": "New Territories East Cluster",
    "institution_eng": "Yuen Chau Kok General Out-patient Clinic",
    "address_eng": "G/F, 29 Chap Wai Kon Street, Shatin",
    "cluster_tc": "新界東醫院聯網",
    "institution_tc": "圓洲角普通科門診診所",
    "address_tc": "沙田插桅杆街29號地下",
    "cluster_sc": "新界东医院联网",
    "institution_sc": "圆洲角普通科门诊诊所",
    "address_sc": "沙田插桅杆街29号地下",
    "latitude": 22.382477,
    "longitude": 114.20151
  },
  {
    "cluster_eng": "New Territories West Cluster",
    "institution_eng": "Kam Tin Clinic",
    "address_eng": "200 Kam Tin Road, Shek Kong",
    "cluster_tc": "新界西醫院聯網",
    "institution_tc": "錦田診所",
    "address_tc": "石崗錦田路200號",
    "cluster_sc": "新界西医院联网",
    "institution_sc": "锦田诊所",
    "address_sc": "石岗锦田路200号",
    "latitude": 22.440106,
    "longitude": 114.07474
  },
  {
    "cluster_eng": "New Territories West Cluster",
    "institution_eng": "Madam Yung Fung Shee Health Centre",
    "address_eng": "26 Sai Ching Street, Yuen Long",
    "cluster_tc": "新界西醫院聯網",
    "institution_tc": "容鳳書健康中心",
    "address_tc": "元朗西菁街26號",
    "cluster_sc": "新界西医院联网",
    "institution_sc": "容凤书健康中心",
    "address_sc": "元朗西菁街26号",
    "latitude": 22.441017,
    "longitude": 114.0271
  },
  {
    "cluster_eng": "New Territories West Cluster",
    "institution_eng": "Tin Shui Wai (Tin Yip Road) Community Health Centre",
    "address_eng": "3, Tin Yip Road, Tin Shui Wai (Opposite Hong Kong Wetland Park and Vianni Cove of Tin Kwai Road)",
    "cluster_tc": "新界西醫院聯網",
    "institution_tc": "天水圍(天業路)社區健康中心",
    "address_tc": "天水圍天業路3號(香港濕地公園及天葵路慧景軒對面)",
    "cluster_sc": "新界西医院联网",
    "institution_sc": "天水围(天业路)社区健康中心",
    "address_sc": "天水围天业路3号(香港湿地公园及天葵路慧景轩对面)",
    "latitude": 22.465478,
    "longitude": 114.00583
  },
  {
    "cluster_eng": "New Territories West Cluster",
    "institution_eng": "Tin Shui Wai Health Centre (Tin Shui Road)",
    "address_eng": "3 Tin Shui Road, Tin Shui Wai",
    "cluster_tc": "新界西醫院聯網",
    "institution_tc": "天水圍健康中心(天瑞路)",
    "address_tc": "天水圍天瑞路3號",
    "cluster_sc": "新界西医院联网",
    "institution_sc": "天水围健康中心(天瑞路)",
    "address_sc": "天水围天瑞路3号",
    "latitude": 22.454546,
    "longitude": 114.00144
  },
  {
    "cluster_eng": "New Territories West Cluster",
    "institution_eng": "Tuen Mun Clinic",
    "address_eng": "11 Tsing Yin Street, San Hui, Tuen Mun",
    "cluster_tc": "新界西醫院聯網",
    "institution_tc": "屯門診所",
    "address_tc": "屯門新墟青賢街11號",
    "cluster_sc": "新界西医院联网",
    "institution_sc": "屯门诊所",
    "address_sc": "屯门新墟青贤街11号",
    "latitude": 22.399656,
    "longitude": 113.97571
  },
  {
    "cluster_eng": "New Territories West Cluster",
    "institution_eng": "Tuen Mun Wu Hong Clinic",
    "address_eng": "2 Wu Hong Street, Tuen Mun",
    "cluster_tc": "新界西醫院聯網",
    "institution_tc": "屯門湖康診所",
    "address_tc": "屯門湖康街2號",
    "cluster_sc": "新界西医院联网",
    "institution_sc": "屯门湖康诊所",
    "address_sc": "屯门湖康街2号",
    "latitude": 22.37715,
    "longitude": 113.96713
  },
  {
    "cluster_eng": "New Territories West Cluster",
    "institution_eng": "Yan Oi General Out-patient Clinic",
    "address_eng": "G/F, 6 Tuen Lee Street, Tuen Mun",
    "cluster_tc": "新界西醫院聯網",
    "institution_tc": "仁愛普通科門診診所",
    "address_tc": "屯門屯利街六號地下",
    "cluster_sc": "新界西医院联网",
    "institution_sc": "仁爱普通科门诊诊所",
    "address_sc": "屯门屯利街六号地下",
    "latitude": 22.391226,
    "longitude": 113.97914
  },
  {
    "cluster_eng": "New Territories West Cluster",
    "institution_eng": "Yuen Long Jockey Club Health Centre",
    "address_eng": "269 Castle Peak Road (Yuen Long), Yuen Long",
    "cluster_tc": "新界西醫院聯網",
    "institution_tc": "元朗賽馬會健康院",
    "address_tc": "元朗青山公路（元朗段）269號",
    "cluster_sc": "新界西医院联网",
    "institution_sc": "元朗赛马会健康院",
    "address_sc": "元朗青山公路（元朗段）269号",
    "latitude": 22.445601,
    "longitude": 114.02317
  }
]
